LAT,LON,GEOID,NAME,PARM,CTYPE,2000,2001,2002,2003,2004,2005,2006,2007,2008,2009,2010,2011,2012,2013,2014,2015,2016
36.043710240216591,-79.399423951477957,37001,ALAMANCE,evictions,county,nan,183.0,242.0,267.0,165.0,331.0,649.0,1111.0,1454.0,1334.0,1278.0,1116.0,1051.0,1066.0,1363.0,1342.0,1446.0
35.921102138255272,-81.177031912548955,37003,ALEXANDER,evictions,county,nan,nan,1.0,1.0,5.0,66.0,121.0,108.0,56.0,93.0,98.0,91.0,90.0,83.0,101.0,119.0,135.0
36.491266636096633,-81.127850995062033,37005,ALLEGHANY,evictions,county,nan,0.0,0.0,0.0,0.0,2.0,10.0,9.0,8.0,13.0,16.0,17.0,9.0,5.0,14.0,23.0,31.0
34.973785174389654,-80.102709265074964,37007,ANSON,evictions,county,nan,9.0,66.0,73.0,31.0,47.0,85.0,61.0,6.0,83.0,93.0,101.0,78.0,96.0,138.0,133.0,113.0
36.434424615079138,-81.500520276623391,37009,ASHE,evictions,county,nan,0.0,0.0,21.0,21.0,14.0,26.0,19.0,34.0,47.0,33.0,41.0,57.0,40.0,55.0,38.0,44.0
36.076604895284156,-81.922601742964488,37011,AVERY,evictions,county,nan,0.0,0.0,0.0,0.0,3.0,9.0,6.0,19.0,10.0,14.0,17.0,16.0,4.0,29.0,19.0,27.0
35.495993472072499,-76.863145408697179,37013,BEAUFORT,evictions,county,nan,nan,123.0,196.0,55.0,55.0,125.0,178.0,143.0,116.0,133.0,119.0,165.0,114.0,118.0,173.0,168.0
36.069226673848902,-76.981684700687609,37015,BERTIE,evictions,county,nan,nan,71.0,44.0,15.0,3.0,22.0,46.0,62.0,68.0,46.0,51.0,74.0,76.0,61.0,66.0,96.0
34.614586912521077,-78.563648292138183,37017,BLADEN,evictions,county,nan,1.0,8.0,14.0,23.0,13.0,65.0,144.0,139.0,122.0,123.0,111.0,90.0,101.0,128.0,153.0,147.0
34.075199027798057,-78.245921798108682,37019,BRUNSWICK,evictions,county,nan,0.0,83.0,128.0,nan,nan,nan,468.0,447.0,393.0,287.0,271.0,103.0,147.0,316.0,186.0,294.0
35.611209125424907,-82.530106509499007,37021,BUNCOMBE,evictions,county,932.0,679.0,592.0,472.0,729.0,699.0,608.0,612.0,1175.0,1003.0,1057.0,1117.0,968.0,934.0,844.0,681.0,964.0
35.749610428064386,-81.704764284099468,37023,BURKE,evictions,county,414.0,305.0,253.0,183.0,252.0,240.0,300.0,258.0,226.0,294.0,244.0,335.0,357.0,288.0,366.0,338.0,437.0
35.386794438573446,-80.551846463938276,37025,CABARRUS,evictions,county,1210.0,736.0,482.0,373.0,769.0,535.0,639.0,391.0,622.0,586.0,592.0,724.0,653.0,672.0,1230.0,892.0,1287.0
35.953045055751794,-81.546433024750016,37027,CALDWELL,evictions,county,342.0,255.0,210.0,196.0,303.0,224.0,318.0,436.0,536.0,440.0,434.0,446.0,430.0,415.0,443.0,460.0,495.0
36.390074202466359,-76.209970935692212,37029,CAMDEN,evictions,county,10.0,14.0,15.0,18.0,14.0,2.0,9.0,18.0,14.0,16.0,8.0,10.0,14.0,9.0,18.0,20.0,15.0
34.830761825553864,-76.674273919768069,37031,CARTERET,evictions,county,170.0,143.0,151.0,154.0,122.0,177.0,116.0,170.0,156.0,173.0,233.0,197.0,183.0,180.0,217.0,161.0,195.0
36.393273383828429,-79.333522848633109,37033,CASWELL,evictions,county,36.0,32.0,44.0,35.0,27.0,23.0,24.0,26.0,61.0,39.0,56.0,30.0,37.0,32.0,48.0,38.0,63.0
35.662111563876024,-81.215046597370872,37035,CATAWBA,evictions,county,860.0,640.0,441.0,427.0,707.0,629.0,580.0,756.0,898.0,847.0,834.0,895.0,901.0,676.0,801.0,943.0,893.0
35.702571605850174,-79.25527468470581,37037,CHATHAM,evictions,county,nan,nan,77.0,104.0,99.0,52.0,79.0,62.0,2.0,76.0,118.0,104.0,100.0,87.0,96.0,75.0,110.0
35.133856941008645,-84.063443362120907,37039,CHEROKEE,evictions,county,42.0,37.0,35.0,33.0,44.0,33.0,32.0,87.0,76.0,49.0,63.0,55.0,69.0,54.0,72.0,86.0,92.0
36.150493984011192,-76.607913269945811,37041,CHOWAN,evictions,county,55.0,36.0,40.0,39.0,34.0,33.0,23.0,30.0,47.0,40.0,36.0,22.0,26.0,23.0,45.0,33.0,46.0
35.057180283520019,-83.750174639851025,37043,CLAY,evictions,county,5.0,7.0,6.0,10.0,10.0,13.0,6.0,20.0,16.0,19.0,18.0,20.0,11.0,8.0,30.0,25.0,40.0
35.334084364670431,-81.555537109917509,37045,CLEVELAND,evictions,county,855.0,618.0,451.0,294.0,471.0,352.0,430.0,310.0,359.0,261.0,284.0,367.0,359.0,407.0,860.0,818.0,968.0
34.265723513751773,-78.654875587415418,37047,COLUMBUS,evictions,county,80.0,77.0,118.0,89.0,97.0,55.0,79.0,157.0,192.0,171.0,180.0,216.0,76.0,82.0,184.0,204.0,204.0
35.126478706902589,-77.096581367335418,37049,CRAVEN,evictions,county,nan,nan,284.0,357.0,461.0,422.0,371.0,516.0,528.0,474.0,501.0,508.0,630.0,613.0,538.0,526.0,474.0
35.048717955786614,-78.827375761218434,37051,CUMBERLAND,evictions,county,4295.0,2868.0,1897.0,1214.0,2090.0,5029.0,5820.0,3510.0,4959.0,4439.0,4379.0,4800.0,4636.0,3810.0,3816.0,4393.0,4272.0
36.402338641151928,-76.01668787829631,37053,CURRITUCK,evictions,county,48.0,61.0,56.0,45.0,73.0,47.0,54.0,60.0,47.0,65.0,68.0,77.0,57.0,47.0,69.0,59.0,77.0
35.770881888092383,-75.800896084626942,37055,DARE,evictions,county,118.0,97.0,87.0,77.0,110.0,65.0,92.0,133.0,143.0,154.0,151.0,95.0,111.0,64.0,99.0,88.0,94.0
35.793355445201989,-80.212748807862184,37057,DAVIDSON,evictions,county,nan,nan,nan,nan,nan,1420.0,1059.0,nan,nan,nan,nan,nan,nan,nan,nan,nan,nan
35.929112144463232,-80.544465107350135,37059,DAVIE,evictions,county,nan,nan,nan,nan,nan,39.0,41.0,96.0,102.0,76.0,106.0,136.0,58.0,67.0,110.0,97.0,89.0
34.936534753901618,-77.933025314662629,37061,DUPLIN,evictions,county,107.0,105.0,99.0,93.0,103.0,58.0,73.0,138.0,153.0,154.0,178.0,177.0,106.0,57.0,149.0,168.0,173.0
36.036028767273692,-78.876591576242774,37063,DURHAM,evictions,county,nan,nan,nan,nan,nan,5376.0,6523.0,4533.0,4233.0,3975.0,4137.0,4007.0,3753.0,3713.0,3091.0,2750.0,3043.0
35.912879349411078,-77.597062418011646,37065,EDGECOMBE,evictions,county,1332.0,758.0,519.0,342.0,nan,nan,nan,nan,nan,nan,nan,nan,nan,nan,nan,nan,nan
36.130618563667802,-80.25629796241347,37067,FORSYTH,evictions,county,nan,nan,nan,nan,nan,2478.0,2412.0,4434.0,4529.0,3812.0,4143.0,2318.0,4148.0,3696.0,3244.0,3102.0,3743.0
36.082773223936506,-78.285695801473196,37069,FRANKLIN,evictions,county,188.0,172.0,171.0,140.0,146.0,101.0,172.0,228.0,223.0,281.0,230.0,204.0,207.0,238.0,258.0,215.0,232.0
35.294351771555029,-81.180238991738136,37071,GASTON,evictions,county,nan,nan,nan,1425.0,1714.0,2298.0,1974.0,1386.0,1142.0,1052.0,986.0,1104.0,1093.0,1116.0,2006.0,1850.0,1270.0
36.445969397159473,-76.699168332836109,37073,GATES,evictions,county,17.0,22.0,20.0,34.0,45.0,13.0,8.0,24.0,25.0,24.0,20.0,17.0,23.0,17.0,19.0,19.0,27.0
35.350172239735407,-83.8335820441485,37075,GRAHAM,evictions,county,2.0,1.0,8.0,4.0,9.0,4.0,2.0,10.0,5.0,4.0,10.0,7.0,6.0,8.0,18.0,25.0,21.0
36.304070792616002,-78.652718937227291,37077,GRANVILLE,evictions,county,233.0,192.0,198.0,135.0,199.0,206.0,259.0,200.0,163.0,244.0,306.0,267.0,268.0,236.0,271.0,257.0,284.0
35.484995679743463,-77.675762697502961,37079,GREENE,evictions,county,nan,nan,nan,nan,nan,nan,nan,nan,nan,nan,nan,nan,nan,nan,nan,nan,nan
36.079473097391151,-79.788900349903528,37081,GUILFORD,evictions,county,nan,nan,nan,nan,nan,4802.0,2526.0,4710.0,7239.0,5700.0,6831.0,6070.0,4666.0,4645.0,5723.0,5990.0,6589.0
36.257459724727966,-77.651772314341343,37083,HALIFAX,evictions,county,nan,nan,nan,nan,262.0,158.0,235.0,333.0,361.0,351.0,363.0,391.0,289.0,237.0,339.0,349.0,356.0
35.368631103172987,-78.86940719782362,37085,HARNETT,evictions,county,548.0,424.0,386.0,372.0,635.0,521.0,444.0,425.0,289.0,502.0,592.0,662.0,633.0,568.0,676.0,604.0,478.0
35.556055621756734,-82.982172921633406,37087,HAYWOOD,evictions,county,148.0,126.0,132.0,78.0,119.0,76.0,137.0,186.0,260.0,238.0,213.0,235.0,188.0,178.0,264.0,249.0,279.0
35.336255926196557,-82.47996184302562,37089,HENDERSON,evictions,county,268.0,196.0,165.0,127.0,217.0,172.0,170.0,243.0,387.0,331.0,306.0,310.0,288.0,194.0,248.0,233.0,283.0
36.358844700169641,-76.984027196079609,37091,HERTFORD,evictions,county,64.0,63.0,57.0,81.0,87.0,35.0,104.0,100.0,126.0,94.0,93.0,87.0,79.0,69.0,93.0,98.0,118.0
35.017529909499729,-79.237293640942767,37093,HOKE,evictions,county,154.0,118.0,120.0,163.0,nan,nan,nan,nan,nan,190.0,241.0,254.0,251.0,195.0,271.0,305.0,341.0
35.532499938725529,-76.24880875094334,37095,HYDE,evictions,county,6.0,8.0,10.0,20.0,6.0,5.0,2.0,13.0,10.0,9.0,5.0,2.0,5.0,1.0,9.0,5.0,7.0
35.806694291358141,-80.873493575213189,37097,IREDELL,evictions,county,689.0,555.0,472.0,331.0,nan,nan,nan,nan,nan,nan,nan,nan,nan,nan,nan,nan,nan
35.287587947318983,-83.140850060031696,37099,JACKSON,evictions,county,53.0,67.0,48.0,46.0,nan,nan,nan,nan,104.0,103.0,114.0,85.0,55.0,95.0,147.0,137.0,169.0
35.517806628043196,-78.365706057484417,37101,JOHNSTON,evictions,county,620.0,454.0,452.0,372.0,666.0,410.0,440.0,693.0,884.0,831.0,867.0,916.0,572.0,649.0,758.0,863.0,823.0
35.021711250594791,-77.355281509420649,37103,JONES,evictions,county,10.0,21.0,20.0,15.0,41.0,26.0,20.0,22.0,17.0,20.0,22.0,12.0,27.0,26.0,26.0,28.0,24.0
35.475184935417964,-79.17148500731949,37105,LEE,evictions,county,290.0,202.0,174.0,161.0,245.0,244.0,301.0,257.0,155.0,199.0,194.0,256.0,281.0,267.0,332.0,324.0,322.0
35.238747390926548,-77.641307984060717,37107,LENOIR,evictions,county,nan,nan,nan,nan,529.0,536.0,573.0,733.0,699.0,518.0,595.0,635.0,654.0,657.0,384.0,632.0,735.0
35.485599257193094,-81.223530478430376,37109,LINCOLN,evictions,county,245.0,166.0,129.0,116.0,151.0,155.0,182.0,189.0,319.0,271.0,253.0,289.0,294.0,276.0,270.0,295.0,310.0
35.150468193184281,-83.422179361669521,37113,MACON,evictions,county,61.0,63.0,46.0,42.0,72.0,41.0,42.0,48.0,80.0,75.0,62.0,84.0,27.0,84.0,94.0,82.0,103.0
35.858035613507099,-82.705758025308057,37115,MADISON,evictions,county,26.0,41.0,23.0,18.0,7.0,7.0,7.0,21.0,29.0,34.0,16.0,18.0,18.0,23.0,36.0,36.0,47.0
35.843136723574609,-77.109262281337692,37117,MARTIN,evictions,county,144.0,102.0,101.0,110.0,156.0,65.0,80.0,127.0,165.0,120.0,133.0,151.0,126.0,115.0,118.0,133.0,112.0
35.681696482592933,-82.049309608893196,37111,MCDOWELL,evictions,county,89.0,66.0,76.0,70.0,55.0,57.0,65.0,92.0,85.0,44.0,77.0,93.0,122.0,137.0,171.0,165.0,202.0
35.246461337598078,-80.832621117458686,37119,MECKLENBURG,evictions,county,nan,nan,nan,nan,13901.0,11063.0,10657.0,12939.0,17380.0,13872.0,13146.0,13068.0,11721.0,11820.0,10914.0,10230.0,10019.0
36.013203060584814,-82.163581024222182,37121,MITCHELL,evictions,county,nan,1.0,3.0,1.0,4.0,6.0,6.0,24.0,18.0,17.0,7.0,14.0,21.0,12.0,18.0,27.0,35.0
35.332398785297165,-79.905483862328921,37123,MONTGOMERY,evictions,county,50.0,49.0,65.0,51.0,41.0,39.0,51.0,71.0,87.0,70.0,71.0,69.0,66.0,58.0,88.0,95.0,98.0
35.31065515634446,-79.48137564176271,37125,MOORE,evictions,county,180.0,126.0,161.0,166.0,139.0,130.0,118.0,140.0,2.0,142.0,235.0,209.0,195.0,124.0,177.0,190.0,226.0
35.96725132238933,-77.986445504529215,37127,NASH,evictions,county,nan,1064.0,1121.0,535.0,nan,nan,nan,nan,nan,nan,nan,nan,nan,nan,nan,nan,nan
34.242514801053098,-77.882005833375828,37129,NEW HANOVER,evictions,county,nan,nan,nan,nan,1288.0,1037.0,969.0,1764.0,1892.0,1915.0,1727.0,1219.0,1244.0,1436.0,1474.0,1405.0,1483.0
36.417732930235218,-77.39682693074208,37131,NORTHAMPTON,evictions,county,38.0,29.0,28.0,51.0,71.0,42.0,40.0,56.0,33.0,53.0,58.0,54.0,36.0,33.0,66.0,63.0,82.0
34.737804948914651,-77.434087894625023,37133,ONSLOW,evictions,county,nan,572.0,466.0,367.0,655.0,436.0,392.0,823.0,965.0,778.0,802.0,836.0,466.0,710.0,839.0,903.0,1028.0
36.061118377819042,-79.12064796691503,37135,ORANGE,evictions,county,410.0,344.0,341.0,181.0,413.0,376.0,330.0,463.0,409.0,555.0,553.0,528.0,517.0,490.0,291.0,364.0,423.0
35.140953656592764,-76.748649955669151,37137,PAMLICO,evictions,county,21.0,27.0,30.0,18.0,23.0,6.0,24.0,16.0,16.0,27.0,15.0,15.0,18.0,15.0,21.0,32.0,12.0
36.297423539727809,-76.286715517944714,37139,PASQUOTANK,evictions,county,nan,255.0,272.0,267.0,nan,nan,nan,nan,nan,nan,nan,nan,nan,nan,nan,nan,nan
34.526502760116735,-77.907490293673746,37141,PENDER,evictions,county,86.0,68.0,84.0,101.0,90.0,72.0,82.0,130.0,190.0,142.0,147.0,149.0,68.0,101.0,168.0,150.0,159.0
36.207004484149941,-76.441870374971671,37143,PERQUIMANS,evictions,county,41.0,30.0,28.0,25.0,35.0,10.0,15.0,24.0,39.0,32.0,32.0,14.0,19.0,10.0,29.0,27.0,43.0
36.390095343314023,-78.971804807167956,37145,PERSON,evictions,county,nan,157.0,140.0,135.0,nan,nan,nan,nan,nan,nan,nan,nan,nan,nan,nan,nan,nan
35.593341520681754,-77.374689510819081,37147,PITT,evictions,county,nan,nan,2303.0,2470.0,2385.0,2243.0,2429.0,2337.0,2349.0,1865.0,2231.0,2270.0,2136.0,2254.0,1983.0,2000.0,2194.0
35.279291091334521,-82.169689234198358,37149,POLK,evictions,county,16.0,20.0,16.0,16.0,16.0,19.0,12.0,23.0,20.0,33.0,33.0,34.0,30.0,27.0,30.0,33.0,22.0
35.710285103600661,-79.806029142803823,37151,RANDOLPH,evictions,county,489.0,358.0,274.0,268.0,430.0,553.0,401.0,663.0,643.0,655.0,676.0,580.0,399.0,195.0,727.0,729.0,713.0
35.005875184629829,-79.747859036516672,37153,RICHMOND,evictions,county,284.0,246.0,196.0,240.0,nan,nan,nan,nan,nan,nan,nan,nan,nan,nan,nan,nan,nan
34.6404344215808,-79.103818685313172,37155,ROBESON,evictions,county,612.0,429.0,402.0,396.0,418.0,460.0,620.0,647.0,536.0,962.0,987.0,1000.0,930.0,871.0,764.0,841.0,996.0
36.396012381672378,-79.774987532710256,37157,ROCKINGHAM,evictions,county,540.0,471.0,361.0,329.0,331.0,592.0,489.0,667.0,543.0,623.0,545.0,566.0,348.0,353.0,433.0,396.0,343.0
35.639473628436463,-80.524771007427617,37159,ROWAN,evictions,county,895.0,611.0,392.0,279.0,486.0,414.0,414.0,413.0,453.0,530.0,500.0,535.0,546.0,728.0,1008.0,1093.0,974.0
35.402594268040886,-81.919830945900699,37161,RUTHERFORD,evictions,county,337.0,307.0,239.0,192.0,201.0,147.0,163.0,102.0,213.0,304.0,308.0,204.0,220.0,260.0,321.0,308.0,337.0
34.991538035956324,-78.371390288218336,37163,SAMPSON,evictions,county,nan,257.0,222.0,206.0,211.0,135.0,158.0,203.0,38.0,229.0,286.0,279.0,264.0,247.0,267.0,279.0,278.0
34.840872273438116,-79.480452323272885,37165,SCOTLAND,evictions,county,nan,261.0,164.0,197.0,175.0,131.0,113.0,168.0,27.0,110.0,135.0,256.0,289.0,243.0,319.0,269.0,236.0
35.311940355315571,-80.250973958660637,37167,STANLY,evictions,county,nan,nan,190.0,326.0,194.0,119.0,152.0,49.0,0.0,40.0,50.0,60.0,86.0,86.0,170.0,206.0,204.0
36.401905104348955,-80.23951623019164,37169,STOKES,evictions,county,95.0,72.0,62.0,61.0,65.0,48.0,60.0,50.0,2.0,57.0,73.0,94.0,124.0,84.0,108.0,95.0,109.0
36.414828293055457,-80.688046143775622,37171,SURRY,evictions,county,231.0,199.0,204.0,217.0,171.0,118.0,139.0,206.0,61.0,149.0,138.0,159.0,169.0,166.0,244.0,231.0,266.0
35.48681563300012,-83.492738570516238,37173,SWAIN,evictions,county,nan,nan,4.0,15.0,1.0,1.0,19.0,25.0,20.0,17.0,24.0,26.0,13.0,8.0,29.0,19.0,27.0
35.202178377837534,-82.798299849246334,37175,TRANSYLVANIA,evictions,county,42.0,38.0,40.0,29.0,20.0,17.0,20.0,51.0,74.0,72.0,60.0,71.0,87.0,54.0,95.0,93.0,125.0
35.815670223602105,-76.213027347218514,37177,TYRRELL,evictions,county,4.0,5.0,14.0,5.0,4.0,4.0,4.0,7.0,5.0,1.0,5.0,5.0,0.0,1.0,9.0,15.0,4.0
34.988364235322457,-80.530722495841246,37179,UNION,evictions,county,688.0,302.0,241.0,271.0,266.0,200.0,223.0,297.0,154.0,215.0,227.0,250.0,234.0,222.0,504.0,569.0,596.0
36.364916371121062,-78.407928197913236,37181,VANCE,evictions,county,864.0,548.0,350.0,285.0,389.0,309.0,421.0,663.0,760.0,653.0,660.0,512.0,307.0,512.0,681.0,672.0,612.0
35.790243960790377,-78.650307712048559,37183,WAKE,evictions,county,nan,nan,nan,nan,nan,1975.0,3058.0,8624.0,7608.0,10657.0,7988.0,7001.0,5246.0,4926.0,4855.0,4937.0,4799.0
36.396509641241721,-78.106716678915618,37185,WARREN,evictions,county,nan,27.0,65.0,44.0,60.0,49.0,73.0,87.0,109.0,80.0,111.0,93.0,46.0,63.0,87.0,81.0,74.0
35.822582073117651,-76.577544223320928,37187,WASHINGTON,evictions,county,86.0,62.0,62.0,34.0,70.0,46.0,36.0,44.0,46.0,57.0,68.0,46.0,13.0,35.0,71.0,59.0,54.0
36.231106402703197,-81.696424242145611,37189,WATAUGA,evictions,county,nan,90.0,81.0,135.0,103.0,118.0,71.0,48.0,43.0,73.0,94.0,104.0,81.0,100.0,102.0,110.0,116.0
35.363960564333546,-78.003993586799183,37191,WAYNE,evictions,county,1268.0,820.0,783.0,866.0,962.0,692.0,608.0,996.0,997.0,778.0,1018.0,902.0,993.0,938.0,887.0,987.0,1024.0
36.206288212620294,-81.16336046417986,37193,WILKES,evictions,county,160.0,146.0,159.0,169.0,180.0,127.0,140.0,153.0,224.0,189.0,192.0,243.0,193.0,129.0,231.0,224.0,252.0
35.705145751001204,-77.918663265169982,37195,WILSON,evictions,county,nan,nan,nan,896.0,902.0,569.0,640.0,1036.0,1062.0,1060.0,922.0,988.0,863.0,913.0,1012.0,979.0,1047.0
36.160532844023706,-80.665243601565479,37197,YADKIN,evictions,county,81.0,53.0,47.0,48.0,45.0,26.0,39.0,36.0,16.0,67.0,56.0,67.0,80.0,84.0,93.0,99.0,102.0
35.898948451357157,-82.307628242829921,37199,YANCEY,evictions,county,8.0,16.0,11.0,6.0,8.0,4.0,2.0,31.0,26.0,11.0,19.0,18.0,12.0,15.0,26.0,27.0,20.0
36.043710240216591,-79.399423951477957,37001,ALAMANCE,evictionrate,county,nan,1.15,1.49,1.6,0.96,1.88,3.59,6.0,7.67,6.87,6.44,5.51,5.09,5.06,6.35,6.14,6.49
35.921102138255272,-81.177031912548955,37003,ALEXANDER,evictionrate,county,nan,nan,0.04,0.04,0.18,2.27,4.08,3.56,1.8,2.93,3.03,2.75,2.65,2.39,2.85,3.29,3.65
36.491266636096633,-81.127850995062033,37005,ALLEGHANY,evictionrate,county,nan,0.0,0.0,0.0,0.0,0.18,0.9,0.79,0.69,1.1,1.33,1.39,0.73,0.4,1.1,1.78,2.36
34.973785174389654,-80.102709265074964,37007,ANSON,evictionrate,county,nan,0.39,2.77,2.96,1.22,1.79,3.13,2.18,0.21,2.8,3.05,3.27,2.49,3.02,4.29,4.08,3.42
36.434424615079138,-81.500520276623391,37009,ASHE,evictionrate,county,nan,0.0,0.0,0.97,0.94,0.61,1.1,0.79,1.37,1.85,1.27,1.55,2.11,1.46,1.97,1.34,1.52
36.076604895284156,-81.922601742964488,37011,AVERY,evictionrate,county,nan,0.0,0.0,0.0,0.0,0.21,0.62,0.41,1.26,0.65,0.89,1.06,0.97,0.24,1.68,1.08,1.5
35.495993472072499,-76.863145408697179,37013,BEAUFORT,evictionrate,county,nan,nan,2.56,3.97,1.09,1.06,2.36,3.29,2.59,2.05,2.31,2.03,2.76,1.87,1.9,2.74,2.62
36.069226673848902,-76.981684700687609,37015,BERTIE,evictionrate,county,nan,nan,3.53,2.15,0.72,0.14,1.03,2.12,2.82,3.04,2.03,2.21,3.16,3.19,2.52,2.69,3.85
34.614586912521077,-78.563648292138183,37017,BLADEN,evictionrate,county,nan,0.03,0.26,0.44,0.69,0.38,1.84,3.94,3.69,3.15,3.08,2.72,2.16,2.38,2.95,3.46,3.26
34.075199027798057,-78.245921798108682,37019,BRUNSWICK,evictionrate,county,nan,0.0,1.29,1.84,nan,nan,nan,5.18,4.68,3.91,2.71,2.45,0.9,1.23,2.54,1.44,2.2
35.611209125424907,-82.530106509499007,37021,BUNCOMBE,evictionrate,county,3.66,2.57,2.17,1.68,2.51,2.33,1.97,1.93,3.6,2.99,3.07,3.15,2.66,2.5,2.2,1.73,2.39
35.749610428064386,-81.704764284099468,37023,BURKE,evictionrate,county,4.63,3.37,2.77,1.98,2.7,2.54,3.15,2.68,2.32,2.99,2.46,3.32,3.48,2.77,3.46,3.15,4.01
35.386794438573446,-80.551846463938276,37025,CABARRUS,evictionrate,county,9.66,5.66,3.58,2.67,5.33,3.59,4.15,2.47,3.81,3.49,3.42,4.06,3.55,3.55,6.31,4.45,6.25
35.953045055751794,-81.546433024750016,37027,CALDWELL,evictionrate,county,4.43,3.24,2.61,2.39,3.62,2.63,3.66,4.93,5.95,4.79,4.65,4.72,4.5,4.29,4.53,4.66,4.96
36.390074202466359,-76.209970935692212,37029,CAMDEN,evictionrate,county,2.26,3.02,3.09,3.55,2.65,0.36,1.58,3.04,2.28,2.52,1.22,1.49,2.03,1.27,2.48,2.7,1.98
34.830761825553864,-76.674273919768069,37031,CARTERET,evictionrate,county,2.89,2.33,2.37,2.33,1.78,2.5,1.59,2.25,2.0,2.15,2.82,2.32,2.1,2.01,2.37,1.72,2.03
36.393273383828429,-79.333522848633109,37033,CASWELL,evictionrate,county,2.01,1.75,2.35,1.83,1.38,1.15,1.18,1.25,2.88,1.8,2.54,1.33,1.61,1.36,2.01,1.56,2.53
35.662111563876024,-81.215046597370872,37035,CATAWBA,evictionrate,county,5.64,4.12,2.79,2.65,4.32,3.78,3.43,4.4,5.14,4.77,4.63,4.88,4.84,3.57,4.17,4.83,4.51
35.702571605850174,-79.25527468470581,37037,CHATHAM,evictionrate,county,nan,nan,1.61,2.12,1.96,1.0,1.49,1.14,0.04,1.33,2.02,1.71,1.59,1.34,1.43,1.08,1.53
35.133856941008645,-84.063443362120907,37039,CHEROKEE,evictionrate,county,2.28,1.95,1.8,1.65,2.14,1.57,1.48,3.93,3.35,2.11,2.66,2.26,2.77,2.12,2.76,3.23,3.38
36.150493984011192,-76.607913269945811,37041,CHOWAN,evictionrate,county,3.55,2.28,2.48,2.37,2.03,1.93,1.32,1.7,2.61,2.18,1.93,1.16,1.35,1.18,2.27,1.64,2.25
35.057180283520019,-83.750174639851025,37043,CLAY,evictionrate,county,0.84,1.1,0.89,1.4,1.33,1.64,0.72,2.3,1.76,2.0,1.82,1.98,1.07,0.76,2.79,2.28,3.57
35.334084364670431,-81.555537109917509,37045,CLEVELAND,evictionrate,county,8.5,6.03,4.31,2.76,4.34,3.18,3.82,2.71,3.08,2.2,2.36,3.0,2.89,3.22,6.7,6.28,7.33
34.265723513751773,-78.654875587415418,37047,COLUMBUS,evictionrate,county,1.59,1.49,2.22,1.63,1.73,0.95,1.34,2.59,3.09,2.69,2.77,3.26,1.13,1.19,2.63,2.87,2.82
35.126478706902589,-77.096581367335418,37049,CRAVEN,evictionrate,county,nan,nan,2.37,2.92,3.69,3.31,2.86,3.9,3.92,3.45,3.59,3.58,4.36,4.18,3.61,3.47,3.08
35.048717955786614,-78.827375761218434,37051,CUMBERLAND,evictionrate,county,9.85,6.42,4.15,2.6,4.37,10.3,11.67,6.89,9.54,8.37,8.1,8.69,8.21,6.61,6.48,7.31,6.97
36.402338641151928,-76.01668787829631,37053,CURRITUCK,evictionrate,county,3.77,4.63,4.11,3.2,5.03,3.14,3.51,3.79,2.89,3.89,3.96,4.35,3.12,2.5,3.57,2.97,3.77
35.770881888092383,-75.800896084626942,37055,DARE,evictionrate,county,3.65,2.91,2.54,2.18,3.03,1.75,2.41,3.39,3.56,3.74,3.58,2.19,2.5,1.4,2.12,1.84,1.92
35.793355445201989,-80.212748807862184,37057,DAVIDSON,evictionrate,county,nan,nan,nan,nan,nan,8.69,6.37,nan,nan,nan,nan,nan,nan,nan,nan,nan,nan
35.929112144463232,-80.544465107350135,37059,DAVIE,evictionrate,county,nan,nan,nan,nan,nan,1.46,1.49,3.39,3.51,2.55,3.46,4.34,1.81,2.05,3.29,2.84,2.56
34.936534753901618,-77.933025314662629,37061,DUPLIN,evictionrate,county,2.33,2.18,1.96,1.76,1.86,1.01,1.22,2.21,2.36,2.29,2.56,2.49,1.46,0.77,1.96,2.17,2.19
36.036028767273692,-78.876591576242774,37063,DURHAM,evictionrate,county,nan,nan,nan,nan,nan,11.85,14.08,9.59,8.79,8.09,8.27,7.75,7.03,6.75,5.45,4.71,5.07
35.912879349411078,-77.597062418011646,37065,EDGECOMBE,evictionrate,county,18.17,10.22,6.92,4.51,nan,nan,nan,nan,nan,nan,nan,nan,nan,nan,nan,nan,nan
36.130618563667802,-80.25629796241347,37067,FORSYTH,evictionrate,county,nan,nan,nan,nan,nan,5.3,5.06,9.15,9.19,7.6,8.13,4.45,7.79,6.8,5.85,5.48,6.48
36.082773223936506,-78.285695801473196,37069,FRANKLIN,evictionrate,county,4.74,4.13,3.91,3.06,3.06,2.03,3.32,4.23,3.99,4.85,3.84,3.33,3.3,3.71,3.94,3.21,3.4
35.294351771555029,-81.180238991738136,37071,GASTON,evictionrate,county,nan,nan,nan,5.96,7.08,9.37,7.96,5.52,4.5,4.09,3.79,4.16,4.04,4.05,7.15,6.48,4.37
36.445969397159473,-76.699168332836109,37073,GATES,evictionrate,county,2.43,3.08,2.74,4.55,5.9,1.67,1.01,2.96,3.02,2.85,2.33,1.94,2.58,1.88,2.06,2.03,2.83
35.350172239735407,-83.8335820441485,37075,GRAHAM,evictionrate,county,0.34,0.17,1.31,0.64,1.4,0.61,0.3,1.45,0.71,0.56,1.36,0.93,0.78,1.01,2.22,3.02,2.48
36.304070792616002,-78.652718937227291,37077,GRANVILLE,evictionrate,county,5.59,4.47,4.47,2.96,4.25,4.28,5.24,3.95,3.14,4.58,5.61,4.79,4.72,4.07,4.58,4.27,4.63
35.484995679743463,-77.675762697502961,37079,GREENE,evictionrate,county,nan,nan,nan,nan,nan,nan,nan,nan,nan,nan,nan,nan,nan,nan,nan,nan,nan
36.079473097391151,-79.788900349903528,37081,GUILFORD,evictionrate,county,nan,nan,nan,nan,nan,6.86,3.54,6.47,9.75,7.53,8.86,7.71,5.81,5.66,6.84,7.02,7.57
36.257459724727966,-77.651772314341343,37083,HALIFAX,evictionrate,county,nan,nan,nan,nan,3.47,2.08,3.07,4.31,4.64,4.48,4.59,4.89,3.57,2.89,4.08,4.15,4.18
35.368631103172987,-78.86940719782362,37085,HARNETT,evictionrate,county,5.45,4.07,3.58,3.33,5.5,4.37,3.61,3.36,2.22,3.75,4.3,4.62,4.26,3.69,4.24,3.67,2.81
35.556055621756734,-82.982172921633406,37087,HAYWOOD,evictionrate,county,2.83,2.35,2.4,1.38,2.06,1.28,2.26,3.0,4.1,3.68,3.22,3.48,2.73,2.53,3.68,3.4,3.74
35.336255926196557,-82.47996184302562,37089,HENDERSON,evictionrate,county,3.38,2.37,1.92,1.42,2.34,1.79,1.71,2.36,3.64,3.02,2.71,2.67,2.42,1.59,1.98,1.82,2.15
36.358844700169641,-76.984027196079609,37091,HERTFORD,evictionrate,county,2.38,2.31,2.06,2.89,3.06,1.21,3.56,3.37,4.19,3.09,3.02,2.78,2.49,2.15,2.85,2.97,3.52
35.017529909499729,-79.237293640942767,37093,HOKE,evictionrate,county,5.42,3.88,3.7,4.73,nan,nan,nan,nan,nan,4.09,4.97,5.02,4.76,3.55,4.75,5.15,5.55
35.532499938725529,-76.24880875094334,37095,HYDE,evictionrate,county,1.27,1.66,2.04,4.01,1.18,0.97,0.38,2.43,1.84,1.63,0.89,0.35,0.86,0.17,1.5,0.82,1.13
35.806694291358141,-80.873493575213189,37097,IREDELL,evictionrate,county,5.91,4.57,3.74,2.52,nan,nan,nan,nan,nan,nan,nan,nan,nan,nan,nan,nan,nan
35.287587947318983,-83.140850060031696,37099,JACKSON,evictionrate,county,1.46,1.74,1.18,1.07,nan,nan,nan,nan,1.93,1.84,1.96,1.43,0.91,1.54,2.34,2.14,2.59
35.517806628043196,-78.365706057484417,37101,JOHNSTON,evictionrate,county,5.01,3.55,3.42,2.73,4.73,2.83,2.95,4.52,5.61,5.14,5.23,5.35,3.24,3.56,4.04,4.48,4.15
35.021711250594791,-77.355281509420649,37103,JONES,evictionrate,county,1.22,2.5,2.32,1.69,4.52,2.79,2.1,2.26,1.7,1.96,2.11,1.12,2.47,2.33,2.28,2.41,2.02
35.475184935417964,-79.17148500731949,37105,LEE,evictionrate,county,5.54,3.71,3.07,2.74,4.02,3.87,4.61,3.81,2.23,2.78,2.63,3.41,3.68,3.44,4.21,4.04,3.95
35.238747390926548,-77.641307984060717,37107,LENOIR,evictionrate,county,nan,nan,nan,nan,6.3,6.29,6.62,8.35,7.84,5.73,6.49,6.86,6.99,6.95,4.02,6.56,7.55
35.485599257193094,-81.223530478430376,37109,LINCOLN,evictionrate,county,4.74,3.09,2.31,2.0,2.51,2.49,2.83,2.85,4.66,3.84,3.48,3.9,3.89,3.58,3.44,3.69,3.81
35.150468193184281,-83.422179361669521,37113,MACON,evictionrate,county,2.55,2.53,1.78,1.57,2.61,1.44,1.43,1.58,2.56,2.33,1.87,2.48,0.78,2.37,2.59,2.21,2.72
35.858035613507099,-82.705758025308057,37115,MADISON,evictionrate,county,1.39,2.18,1.22,0.95,0.37,0.36,0.36,1.08,1.48,1.73,0.81,0.89,0.86,1.08,1.65,1.61,2.05
35.843136723574609,-77.109262281337692,37117,MARTIN,evictionrate,county,5.1,3.55,3.46,3.71,5.18,2.12,2.57,4.02,5.15,3.69,4.03,4.54,3.76,3.41,3.47,3.89,3.25
35.681696482592933,-82.049309608893196,37111,MCDOWELL,evictionrate,county,2.35,1.7,1.91,1.72,1.32,1.34,1.49,2.07,1.87,0.95,1.63,1.93,2.47,2.72,3.33,3.15,3.78
35.246461337598078,-80.832621117458686,37119,MECKLENBURG,evictionrate,county,nan,nan,nan,nan,11.69,9.01,8.41,9.9,12.9,10.0,9.22,8.86,7.69,7.52,6.73,6.13,5.83
36.013203060584814,-82.163581024222182,37121,MITCHELL,evictionrate,county,nan,0.08,0.23,0.07,0.29,0.43,0.42,1.64,1.2,1.12,0.45,0.89,1.31,0.74,1.09,1.61,2.06
35.332398785297165,-79.905483862328921,37123,MONTGOMERY,evictionrate,county,2.18,2.09,2.71,2.08,1.63,1.52,1.95,2.66,3.19,2.52,2.51,2.38,2.23,1.92,2.86,3.03,3.07
35.31065515634446,-79.48137564176271,37125,MOORE,evictionrate,county,2.75,1.84,2.25,2.23,1.8,1.62,1.42,1.63,0.02,1.54,2.48,2.12,1.91,1.17,1.62,1.68,1.94
35.96725132238933,-77.986445504529215,37127,NASH,evictionrate,county,nan,9.59,9.89,4.62,nan,nan,nan,nan,nan,nan,nan,nan,nan,nan,nan,nan,nan
34.242514801053098,-77.882005833375828,37129,NEW HANOVER,evictionrate,county,nan,nan,nan,nan,4.55,3.53,3.19,5.61,5.82,5.71,4.99,3.43,3.41,3.83,3.84,3.57,3.68
36.417732930235218,-77.39682693074208,37131,NORTHAMPTON,evictionrate,county,1.9,1.41,1.33,2.37,3.22,1.86,1.74,2.38,1.37,2.16,2.31,2.13,1.41,1.28,2.53,2.4,3.09
34.737804948914651,-77.434087894625023,37133,ONSLOW,evictionrate,county,nan,2.76,2.19,1.68,2.93,1.9,1.67,3.42,3.92,3.09,3.11,3.12,1.67,2.45,2.8,2.91,3.2
36.061118377819042,-79.12064796691503,37135,ORANGE,evictionrate,county,2.11,1.76,1.73,0.92,2.08,1.88,1.64,2.29,2.01,2.72,2.69,2.52,2.42,2.25,1.31,1.61,1.83
35.140953656592764,-76.748649955669151,37137,PAMLICO,evictionrate,county,2.28,2.86,3.1,1.82,2.27,0.58,2.26,1.48,1.45,2.39,1.3,1.27,1.48,1.2,1.64,2.44,0.9
36.297423539727809,-76.286715517944714,37139,PASQUOTANK,evictionrate,county,nan,5.66,5.93,5.73,nan,nan,nan,nan,nan,nan,nan,nan,nan,nan,nan,nan,nan
34.526502760116735,-77.907490293673746,37141,PENDER,evictionrate,county,3.08,2.28,2.66,3.02,2.56,1.94,2.11,3.2,4.47,3.2,3.19,3.11,1.37,1.97,3.17,2.74,2.81
36.207004484149941,-76.441870374971671,37143,PERQUIMANS,evictionrate,county,4.12,2.91,2.62,2.26,3.07,0.85,1.24,1.92,3.03,2.42,2.35,1.01,1.34,0.69,1.96,1.78,2.78
36.390095343314023,-78.971804807167956,37145,PERSON,evictionrate,county,nan,4.29,3.74,3.53,nan,nan,nan,nan,nan,nan,nan,nan,nan,nan,nan,nan,nan
35.593341520681754,-77.374689510819081,37147,PITT,evictionrate,county,nan,nan,9.7,10.04,9.36,8.52,8.93,8.33,8.12,6.26,7.27,7.26,6.7,6.94,6.0,5.94,6.41
35.279291091334521,-82.169689234198358,37149,POLK,evictionrate,county,0.95,1.15,0.89,0.87,0.85,0.98,0.6,1.13,0.96,1.54,1.5,1.51,1.31,1.15,1.26,1.35,0.88
35.710285103600661,-79.806029142803823,37151,RANDOLPH,evictionrate,county,4.12,2.94,2.19,2.09,3.28,4.12,2.92,4.72,4.48,4.47,4.52,3.81,2.58,1.24,4.56,4.5,4.34
35.005875184629829,-79.747859036516672,37153,RICHMOND,evictionrate,county,5.66,4.78,3.71,4.44,nan,nan,nan,nan,nan,nan,nan,nan,nan,nan,nan,nan,nan
34.6404344215808,-79.103818685313172,37155,ROBESON,evictionrate,county,5.14,3.47,3.13,2.97,3.03,3.22,4.2,4.25,3.41,5.94,5.92,5.89,5.39,4.96,4.27,4.63,5.39
36.396012381672378,-79.774987532710256,37157,ROCKINGHAM,evictionrate,county,5.55,4.75,3.57,3.19,3.15,5.53,4.49,6.01,4.81,5.43,4.67,4.79,2.91,2.91,3.53,3.19,2.73
35.639473628436463,-80.524771007427617,37159,ROWAN,evictionrate,county,6.78,4.53,2.84,1.98,3.38,2.82,2.76,2.7,2.91,3.34,3.1,3.26,3.27,4.3,5.86,6.26,5.49
35.402594268040886,-81.919830945900699,37161,RUTHERFORD,evictionrate,county,5.24,4.68,3.58,2.82,2.9,2.08,2.27,1.39,2.86,4.02,4.0,2.61,2.77,3.22,3.91,3.69,3.98
34.991538035956324,-78.371390288218336,37163,SAMPSON,evictionrate,county,nan,4.25,3.58,3.25,3.26,2.04,2.34,2.94,0.54,3.19,3.91,3.75,3.49,3.21,3.42,3.51,3.45
34.840872273438116,-79.480452323272885,37165,SCOTLAND,evictionrate,county,nan,6.21,3.83,4.51,3.93,2.89,2.45,3.58,0.57,2.27,2.74,5.13,5.73,4.76,6.18,5.16,4.48
35.311940355315571,-80.250973958660637,37167,STANLY,evictionrate,county,nan,nan,3.45,5.79,3.38,2.03,2.54,0.8,0.0,0.63,0.78,0.91,1.29,1.26,2.45,2.92,2.85
36.401905104348955,-80.23951623019164,37169,STOKES,evictionrate,county,3.02,2.21,1.84,1.75,1.81,1.29,1.57,1.27,0.05,1.37,1.71,2.17,2.81,1.87,2.37,2.05,2.31
36.414828293055457,-80.688046143775622,37171,SURRY,evictionrate,county,3.44,2.9,2.91,3.03,2.34,1.59,1.83,2.66,0.77,1.86,1.69,1.92,2.01,1.95,2.82,2.63,2.99
35.48681563300012,-83.492738570516238,37173,SWAIN,evictionrate,county,nan,nan,0.32,1.18,0.08,0.08,1.4,1.8,1.41,1.18,1.63,1.72,0.83,0.5,1.76,1.12,1.55
35.202178377837534,-82.798299849246334,37175,TRANSYLVANIA,evictionrate,county,1.65,1.44,1.46,1.02,0.68,0.56,0.64,1.58,2.23,2.1,1.7,1.96,2.34,1.42,2.43,2.32,3.05
35.815670223602105,-76.213027347218514,37177,TYRRELL,evictionrate,county,1.04,1.28,3.53,1.24,0.98,0.97,0.96,1.65,1.16,0.23,1.14,1.12,0.0,0.22,1.95,3.21,0.85
34.988364235322457,-80.530722495841246,37179,UNION,evictionrate,county,8.14,3.4,2.59,2.78,2.62,1.89,2.03,2.6,1.3,1.75,1.79,1.89,1.71,1.57,3.44,3.75,3.81
36.364916371121062,-78.407928197913236,37181,VANCE,evictionrate,county,15.81,9.82,6.14,4.9,6.56,5.11,6.83,10.56,11.88,10.03,9.95,7.63,4.52,7.46,9.81,9.57,8.62
35.790243960790377,-78.650307712048559,37183,WAKE,evictionrate,county,nan,nan,nan,nan,nan,1.95,2.9,7.9,6.74,9.13,6.63,5.61,4.06,3.69,3.52,3.47,3.27
36.396509641241721,-78.106716678915618,37185,WARREN,evictionrate,county,nan,1.5,3.52,2.31,3.07,2.44,3.54,4.11,5.02,3.59,4.87,4.0,1.94,2.6,3.53,3.22,2.89
35.822582073117651,-76.577544223320928,37187,WASHINGTON,evictionrate,county,6.07,4.3,4.22,2.28,4.61,2.98,2.29,2.76,2.84,3.46,4.06,2.72,0.76,2.03,4.09,3.36,3.05
36.231106402703197,-81.696424242145611,37189,WATAUGA,evictionrate,county,nan,1.41,1.21,1.94,1.43,1.58,0.92,0.6,0.52,0.85,1.07,1.15,0.88,1.06,1.06,1.12,1.16
35.363960564333546,-78.003993586799183,37191,WAYNE,evictionrate,county,8.59,5.44,5.08,5.5,5.99,4.22,3.64,5.85,5.75,4.4,5.65,4.93,5.33,4.96,4.61,5.05,5.16
36.206288212620294,-81.16336046417986,37193,WILKES,evictionrate,county,2.72,2.43,2.58,2.69,2.8,1.93,2.09,2.24,3.21,2.65,2.65,3.29,2.57,1.68,2.96,2.83,3.13
35.705145751001204,-77.918663265169982,37195,WILSON,evictionrate,county,nan,nan,nan,7.72,7.66,4.77,5.29,8.44,8.54,8.41,7.22,7.65,6.6,6.91,7.57,7.24,7.66
36.160532844023706,-80.665243601565479,37197,YADKIN,evictionrate,county,2.83,1.8,1.55,1.54,1.41,0.79,1.16,1.05,0.45,1.86,1.52,1.79,2.1,2.17,2.36,2.48,2.51
35.898948451357157,-82.307628242829921,37199,YANCEY,evictionrate,county,0.54,1.06,0.71,0.38,0.5,0.24,0.12,1.82,1.49,0.62,1.05,0.98,0.64,0.79,1.34,1.37,1.0
36.043710240216591,-79.399423951477957,37001,ALAMANCE,evictionfilings,county,nan,1175.0,2229.0,2355.0,2620.0,2638.0,2345.0,2477.0,2580.0,2414.0,2405.0,2437.0,2492.0,2477.0,2575.0,2485.0,2469.0
35.921102138255272,-81.177031912548955,37003,ALEXANDER,evictionfilings,county,nan,nan,140.0,150.0,154.0,196.0,188.0,222.0,183.0,177.0,165.0,165.0,154.0,160.0,176.0,171.0,179.0
36.491266636096633,-81.127850995062033,37005,ALLEGHANY,evictionfilings,county,nan,5.0,19.0,9.0,1.0,9.0,24.0,31.0,22.0,21.0,20.0,23.0,12.0,16.0,19.0,27.0,42.0
34.973785174389654,-80.102709265074964,37007,ANSON,evictionfilings,county,nan,76.0,207.0,237.0,188.0,140.0,164.0,196.0,164.0,187.0,193.0,187.0,165.0,201.0,222.0,217.0,207.0
36.434424615079138,-81.500520276623391,37009,ASHE,evictionfilings,county,nan,22.0,46.0,75.0,54.0,31.0,51.0,53.0,50.0,78.0,56.0,59.0,86.0,76.0,79.0,58.0,68.0
36.076604895284156,-81.922601742964488,37011,AVERY,evictionfilings,county,nan,13.0,25.0,21.0,8.0,24.0,26.0,29.0,33.0,22.0,30.0,25.0,19.0,30.0,33.0,30.0,32.0
35.495993472072499,-76.863145408697179,37013,BEAUFORT,evictionfilings,county,nan,nan,523.0,537.0,314.0,232.0,288.0,389.0,272.0,286.0,245.0,205.0,286.0,249.0,292.0,408.0,343.0
36.069226673848902,-76.981684700687609,37015,BERTIE,evictionfilings,county,nan,nan,183.0,151.0,78.0,90.0,77.0,100.0,120.0,119.0,87.0,94.0,121.0,165.0,110.0,132.0,162.0
34.614586912521077,-78.563648292138183,37017,BLADEN,evictionfilings,county,nan,68.0,135.0,208.0,194.0,180.0,243.0,288.0,258.0,195.0,218.0,204.0,263.0,256.0,277.0,261.0,245.0
34.075199027798057,-78.245921798108682,37019,BRUNSWICK,evictionfilings,county,nan,248.0,633.0,632.0,nan,nan,nan,523.0,677.0,725.0,762.0,678.0,633.0,694.0,616.0,600.0,531.0
35.611209125424907,-82.530106509499007,37021,BUNCOMBE,evictionfilings,county,1048.0,1843.0,3011.0,3219.0,2786.0,2753.0,2728.0,2920.0,2717.0,2292.0,2312.0,2476.0,2295.0,2306.0,1993.0,1733.0,2071.0
35.749610428064386,-81.704764284099468,37023,BURKE,evictionfilings,county,455.0,599.0,995.0,867.0,756.0,627.0,652.0,496.0,482.0,447.0,410.0,498.0,517.0,509.0,529.0,562.0,587.0
35.386794438573446,-80.551846463938276,37025,CABARRUS,evictionfilings,county,1292.0,1645.0,3087.0,2687.0,2623.0,2292.0,2125.0,2183.0,2667.0,2682.0,2569.0,2871.0,2567.0,3030.0,3067.0,3047.0,2941.0
35.953045055751794,-81.546433024750016,37027,CALDWELL,evictionfilings,county,352.0,435.0,830.0,901.0,766.0,714.0,840.0,846.0,788.0,681.0,647.0,652.0,633.0,697.0,662.0,681.0,670.0
36.390074202466359,-76.209970935692212,37029,CAMDEN,evictionfilings,county,11.0,21.0,37.0,63.0,20.0,20.0,23.0,41.0,29.0,25.0,27.0,26.0,34.0,38.0,37.0,32.0,38.0
34.830761825553864,-76.674273919768069,37031,CARTERET,evictionfilings,county,173.0,317.0,543.0,460.0,259.0,310.0,325.0,322.0,305.0,262.0,410.0,358.0,410.0,325.0,385.0,317.0,336.0
36.393273383828429,-79.333522848633109,37033,CASWELL,evictionfilings,county,43.0,70.0,163.0,128.0,81.0,71.0,90.0,83.0,72.0,65.0,81.0,80.0,71.0,85.0,71.0,77.0,80.0
35.662111563876024,-81.215046597370872,37035,CATAWBA,evictionfilings,county,973.0,1391.0,2061.0,2445.0,1876.0,1767.0,1995.0,2223.0,2029.0,1590.0,1590.0,1572.0,1593.0,1630.0,1543.0,1554.0,1561.0
35.702571605850174,-79.25527468470581,37037,CHATHAM,evictionfilings,county,nan,nan,352.0,336.0,211.0,163.0,300.0,246.0,244.0,219.0,266.0,239.0,245.0,245.0,204.0,241.0,244.0
35.133856941008645,-84.063443362120907,37039,CHEROKEE,evictionfilings,county,43.0,72.0,125.0,132.0,100.0,117.0,121.0,143.0,126.0,90.0,108.0,86.0,108.0,118.0,118.0,136.0,144.0
36.150493984011192,-76.607913269945811,37041,CHOWAN,evictionfilings,county,59.0,71.0,177.0,151.0,97.0,95.0,70.0,76.0,68.0,68.0,53.0,51.0,57.0,64.0,79.0,56.0,69.0
35.057180283520019,-83.750174639851025,37043,CLAY,evictionfilings,county,5.0,18.0,25.0,29.0,20.0,32.0,22.0,33.0,22.0,30.0,39.0,37.0,26.0,27.0,38.0,38.0,49.0
35.334084364670431,-81.555537109917509,37045,CLEVELAND,evictionfilings,county,967.0,1170.0,1745.0,1526.0,1459.0,1278.0,1132.0,1088.0,1272.0,1108.0,1095.0,1244.0,1237.0,1230.0,1217.0,1377.0,1354.0
34.265723513751773,-78.654875587415418,37047,COLUMBUS,evictionfilings,county,82.0,87.0,294.0,272.0,198.0,221.0,239.0,243.0,273.0,267.0,304.0,335.0,234.0,217.0,308.0,353.0,311.0
35.126478706902589,-77.096581367335418,37049,CRAVEN,evictionfilings,county,nan,nan,376.0,510.0,547.0,496.0,435.0,628.0,636.0,613.0,651.0,748.0,861.0,841.0,965.0,1145.0,970.0
35.048717955786614,-78.827375761218434,37051,CUMBERLAND,evictionfilings,county,4795.0,6570.0,10495.0,10065.0,11328.0,13162.0,10255.0,9103.0,9175.0,9043.0,9514.0,9539.0,8718.0,8837.0,8902.0,9080.0,8600.0
36.402338641151928,-76.01668787829631,37053,CURRITUCK,evictionfilings,county,49.0,135.0,242.0,255.0,223.0,240.0,207.0,187.0,202.0,209.0,202.0,169.0,107.0,106.0,112.0,89.0,110.0
35.770881888092383,-75.800896084626942,37055,DARE,evictionfilings,county,123.0,168.0,340.0,368.0,325.0,255.0,333.0,483.0,393.0,342.0,296.0,206.0,215.0,237.0,228.0,187.0,182.0
35.793355445201989,-80.212748807862184,37057,DAVIDSON,evictionfilings,county,nan,nan,nan,nan,nan,4347.0,2115.0,nan,nan,nan,nan,nan,nan,nan,nan,nan,nan
35.929112144463232,-80.544465107350135,37059,DAVIE,evictionfilings,county,nan,nan,nan,nan,nan,103.0,137.0,228.0,192.0,208.0,195.0,221.0,203.0,202.0,178.0,154.0,152.0
34.936534753901618,-77.933025314662629,37061,DUPLIN,evictionfilings,county,114.0,224.0,353.0,350.0,269.0,198.0,228.0,269.0,252.0,247.0,255.0,301.0,250.0,283.0,285.0,262.0,269.0
36.036028767273692,-78.876591576242774,37063,DURHAM,evictionfilings,county,nan,nan,nan,nan,nan,16855.0,23277.0,11818.0,12202.0,14444.0,14402.0,13733.0,12616.0,12259.0,11595.0,10722.0,10754.0
35.912879349411078,-77.597062418011646,37065,EDGECOMBE,evictionfilings,county,2507.0,4341.0,6283.0,6256.0,nan,nan,nan,nan,nan,nan,nan,nan,nan,nan,nan,nan,nan
36.130618563667802,-80.25629796241347,37067,FORSYTH,evictionfilings,county,nan,nan,nan,nan,nan,12209.0,12572.0,9478.0,8893.0,8777.0,12446.0,10670.0,10738.0,10277.0,9964.0,9024.0,9228.0
36.082773223936506,-78.285695801473196,37069,FRANKLIN,evictionfilings,county,222.0,374.0,656.0,604.0,394.0,418.0,522.0,509.0,423.0,500.0,436.0,460.0,465.0,492.0,494.0,466.0,435.0
35.294351771555029,-81.180238991738136,37071,GASTON,evictionfilings,county,nan,nan,nan,1885.0,2480.0,6849.0,5972.0,3933.0,4154.0,3767.0,4107.0,4402.0,4074.0,4493.0,5087.0,4618.0,4338.0
36.445969397159473,-76.699168332836109,37073,GATES,evictionfilings,county,19.0,36.0,65.0,103.0,98.0,52.0,41.0,58.0,48.0,28.0,38.0,32.0,41.0,38.0,30.0,35.0,30.0
35.350172239735407,-83.8335820441485,37075,GRAHAM,evictionfilings,county,2.0,9.0,18.0,18.0,14.0,11.0,15.0,15.0,5.0,6.0,19.0,13.0,11.0,16.0,26.0,30.0,30.0
36.304070792616002,-78.652718937227291,37077,GRANVILLE,evictionfilings,county,294.0,514.0,805.0,714.0,527.0,556.0,617.0,852.0,687.0,612.0,571.0,528.0,522.0,574.0,536.0,570.0,618.0
35.484995679743463,-77.675762697502961,37079,GREENE,evictionfilings,county,nan,nan,nan,nan,nan,nan,nan,nan,nan,nan,nan,nan,nan,nan,nan,nan,nan
36.079473097391151,-79.788900349903528,37081,GUILFORD,evictionfilings,county,nan,nan,nan,nan,nan,21041.0,14131.0,6985.0,17761.0,15832.0,17158.0,16887.0,15072.0,17725.0,17564.0,16601.0,16272.0
36.257459724727966,-77.651772314341343,37083,HALIFAX,evictionfilings,county,nan,nan,nan,nan,744.0,560.0,696.0,784.0,666.0,586.0,608.0,721.0,632.0,626.0,589.0,610.0,572.0
35.368631103172987,-78.86940719782362,37085,HARNETT,evictionfilings,county,592.0,1039.0,1586.0,1505.0,1205.0,966.0,1023.0,1173.0,1074.0,923.0,1039.0,1050.0,1032.0,1083.0,1161.0,1033.0,1114.0
35.556055621756734,-82.982172921633406,37087,HAYWOOD,evictionfilings,county,151.0,228.0,438.0,369.0,365.0,320.0,378.0,386.0,386.0,365.0,352.0,328.0,354.0,375.0,415.0,441.0,404.0
35.336255926196557,-82.47996184302562,37089,HENDERSON,evictionfilings,county,290.0,444.0,782.0,716.0,684.0,764.0,661.0,753.0,734.0,683.0,579.0,612.0,579.0,571.0,560.0,561.0,658.0
36.358844700169641,-76.984027196079609,37091,HERTFORD,evictionfilings,county,69.0,118.0,257.0,267.0,239.0,167.0,268.0,261.0,242.0,211.0,204.0,259.0,214.0,194.0,194.0,199.0,224.0
35.017529909499729,-79.237293640942767,37093,HOKE,evictionfilings,county,175.0,268.0,411.0,522.0,nan,nan,nan,nan,nan,470.0,484.0,462.0,413.0,427.0,430.0,533.0,633.0
35.532499938725529,-76.24880875094334,37095,HYDE,evictionfilings,county,7.0,11.0,23.0,40.0,10.0,5.0,5.0,23.0,12.0,9.0,7.0,9.0,5.0,4.0,11.0,9.0,8.0
35.806694291358141,-80.873493575213189,37097,IREDELL,evictionfilings,county,727.0,1203.0,2244.0,2159.0,nan,nan,nan,nan,nan,nan,nan,nan,nan,nan,nan,nan,nan
35.287587947318983,-83.140850060031696,37099,JACKSON,evictionfilings,county,55.0,106.0,158.0,149.0,nan,nan,nan,nan,138.0,133.0,157.0,207.0,180.0,186.0,201.0,197.0,221.0
35.517806628043196,-78.365706057484417,37101,JOHNSTON,evictionfilings,county,669.0,1077.0,1897.0,1807.0,1784.0,1503.0,1554.0,1776.0,1622.0,1509.0,1683.0,1636.0,1538.0,1557.0,1523.0,1557.0,1460.0
35.021711250594791,-77.355281509420649,37103,JONES,evictionfilings,county,12.0,39.0,67.0,66.0,64.0,46.0,69.0,48.0,62.0,43.0,50.0,48.0,58.0,72.0,61.0,71.0,56.0
35.475184935417964,-79.17148500731949,37105,LEE,evictionfilings,county,328.0,513.0,918.0,793.0,567.0,600.0,749.0,674.0,575.0,598.0,642.0,647.0,592.0,554.0,602.0,614.0,594.0
35.238747390926548,-77.641307984060717,37107,LENOIR,evictionfilings,county,nan,nan,nan,nan,648.0,1207.0,1188.0,1168.0,1853.0,1352.0,1437.0,1460.0,1297.0,1323.0,1328.0,1348.0,1517.0
35.485599257193094,-81.223530478430376,37109,LINCOLN,evictionfilings,county,273.0,392.0,591.0,593.0,478.0,526.0,536.0,496.0,523.0,450.0,406.0,444.0,454.0,500.0,495.0,488.0,473.0
35.150468193184281,-83.422179361669521,37113,MACON,evictionfilings,county,62.0,119.0,181.0,177.0,152.0,123.0,120.0,112.0,131.0,98.0,88.0,125.0,124.0,155.0,151.0,138.0,174.0
35.858035613507099,-82.705758025308057,37115,MADISON,evictionfilings,county,26.0,76.0,77.0,74.0,12.0,9.0,9.0,32.0,36.0,52.0,39.0,48.0,44.0,52.0,59.0,55.0,62.0
35.843136723574609,-77.109262281337692,37117,MARTIN,evictionfilings,county,210.0,306.0,564.0,514.0,478.0,274.0,320.0,327.0,342.0,287.0,295.0,293.0,253.0,251.0,233.0,233.0,230.0
35.681696482592933,-82.049309608893196,37111,MCDOWELL,evictionfilings,county,89.0,124.0,227.0,227.0,154.0,164.0,185.0,233.0,185.0,149.0,167.0,201.0,206.0,234.0,243.0,250.0,274.0
35.246461337598078,-80.832621117458686,37119,MECKLENBURG,evictionfilings,county,nan,nan,nan,nan,43235.0,51083.0,40427.0,38623.0,36710.0,34776.0,36350.0,36528.0,33192.0,32696.0,32625.0,29730.0,28220.0
36.013203060584814,-82.163581024222182,37121,MITCHELL,evictionfilings,county,nan,1.0,12.0,4.0,7.0,21.0,18.0,24.0,20.0,19.0,13.0,26.0,29.0,22.0,29.0,46.0,50.0
35.332398785297165,-79.905483862328921,37123,MONTGOMERY,evictionfilings,county,54.0,107.0,185.0,161.0,126.0,117.0,130.0,155.0,131.0,96.0,102.0,112.0,133.0,114.0,118.0,159.0,137.0
35.31065515634446,-79.48137564176271,37125,MOORE,evictionfilings,county,192.0,303.0,605.0,652.0,367.0,439.0,427.0,526.0,450.0,407.0,525.0,551.0,408.0,372.0,375.0,428.0,462.0
35.96725132238933,-77.986445504529215,37127,NASH,evictionfilings,county,nan,4174.0,8075.0,7289.0,nan,nan,nan,nan,nan,nan,nan,nan,nan,nan,nan,nan,nan
34.242514801053098,-77.882005833375828,37129,NEW HANOVER,evictionfilings,county,nan,nan,nan,nan,3864.0,4312.0,4029.0,4276.0,4167.0,3782.0,3716.0,3588.0,3278.0,3450.0,3402.0,3100.0,2979.0
36.417732930235218,-77.39682693074208,37131,NORTHAMPTON,evictionfilings,county,73.0,96.0,162.0,180.0,171.0,127.0,138.0,133.0,75.0,102.0,90.0,104.0,84.0,105.0,113.0,139.0,125.0
34.737804948914651,-77.434087894625023,37133,ONSLOW,evictionfilings,county,nan,1850.0,2249.0,2001.0,1674.0,1420.0,1719.0,1993.0,2039.0,1681.0,1685.0,1689.0,1786.0,1857.0,1906.0,1931.0,2192.0
36.061118377819042,-79.12064796691503,37135,ORANGE,evictionfilings,county,439.0,870.0,1704.0,1461.0,1342.0,1525.0,1406.0,1720.0,1425.0,1309.0,1275.0,1159.0,1165.0,1148.0,1070.0,937.0,973.0
35.140953656592764,-76.748649955669151,37137,PAMLICO,evictionfilings,county,21.0,44.0,62.0,42.0,34.0,26.0,49.0,61.0,47.0,51.0,41.0,45.0,38.0,29.0,45.0,38.0,26.0
36.297423539727809,-76.286715517944714,37139,PASQUOTANK,evictionfilings,county,nan,539.0,1212.0,1083.0,nan,nan,nan,nan,nan,nan,nan,nan,nan,nan,nan,nan,nan
34.526502760116735,-77.907490293673746,37141,PENDER,evictionfilings,county,87.0,135.0,275.0,274.0,247.0,218.0,217.0,226.0,253.0,226.0,212.0,213.0,174.0,230.0,291.0,289.0,289.0
36.207004484149941,-76.441870374971671,37143,PERQUIMANS,evictionfilings,county,44.0,59.0,83.0,65.0,75.0,52.0,45.0,60.0,73.0,53.0,56.0,60.0,58.0,49.0,57.0,67.0,75.0
36.390095343314023,-78.971804807167956,37145,PERSON,evictionfilings,county,nan,445.0,704.0,627.0,nan,nan,nan,nan,nan,nan,nan,nan,nan,nan,nan,nan,nan
35.593341520681754,-77.374689510819081,37147,PITT,evictionfilings,county,nan,nan,3967.0,3907.0,3791.0,6215.0,7812.0,5456.0,5714.0,4939.0,5235.0,5752.0,5162.0,5262.0,4914.0,4778.0,4787.0
35.279291091334521,-82.169689234198358,37149,POLK,evictionfilings,county,16.0,45.0,73.0,81.0,39.0,55.0,58.0,48.0,36.0,61.0,60.0,58.0,49.0,62.0,53.0,48.0,51.0
35.710285103600661,-79.806029142803823,37151,RANDOLPH,evictionfilings,county,519.0,950.0,1396.0,1651.0,1255.0,1632.0,1401.0,1473.0,1346.0,1157.0,1130.0,1328.0,1112.0,1152.0,1191.0,1229.0,1272.0
35.005875184629829,-79.747859036516672,37153,RICHMOND,evictionfilings,county,315.0,581.0,835.0,876.0,nan,nan,nan,nan,nan,nan,nan,nan,nan,nan,nan,nan,nan
34.6404344215808,-79.103818685313172,37155,ROBESON,evictionfilings,county,699.0,1026.0,1653.0,1944.0,1545.0,1631.0,1674.0,1869.0,1939.0,2131.0,2152.0,2077.0,1791.0,1855.0,1786.0,1817.0,1787.0
36.396012381672378,-79.774987532710256,37157,ROCKINGHAM,evictionfilings,county,612.0,965.0,1444.0,1575.0,1443.0,1599.0,1011.0,841.0,685.0,763.0,668.0,856.0,742.0,780.0,728.0,600.0,558.0
35.639473628436463,-80.524771007427617,37159,ROWAN,evictionfilings,county,976.0,1610.0,2110.0,1909.0,1634.0,1407.0,1518.0,1637.0,1895.0,1651.0,1519.0,1657.0,1606.0,1858.0,2010.0,1856.0,1855.0
35.402594268040886,-81.919830945900699,37161,RUTHERFORD,evictionfilings,county,373.0,534.0,763.0,751.0,558.0,507.0,481.0,439.0,367.0,446.0,478.0,465.0,447.0,496.0,519.0,442.0,473.0
34.991538035956324,-78.371390288218336,37163,SAMPSON,evictionfilings,county,nan,695.0,894.0,865.0,570.0,541.0,482.0,594.0,510.0,491.0,549.0,503.0,449.0,526.0,462.0,452.0,430.0
34.840872273438116,-79.480452323272885,37165,SCOTLAND,evictionfilings,county,nan,882.0,1198.0,1060.0,592.0,579.0,636.0,830.0,863.0,726.0,660.0,597.0,510.0,539.0,626.0,488.0,408.0
35.311940355315571,-80.250973958660637,37167,STANLY,evictionfilings,county,nan,nan,259.0,385.0,512.0,547.0,451.0,406.0,435.0,397.0,334.0,349.0,328.0,342.0,348.0,302.0,325.0
36.401905104348955,-80.23951623019164,37169,STOKES,evictionfilings,county,98.0,176.0,242.0,243.0,182.0,188.0,196.0,199.0,156.0,140.0,134.0,160.0,160.0,153.0,165.0,150.0,184.0
36.414828293055457,-80.688046143775622,37171,SURRY,evictionfilings,county,249.0,383.0,731.0,728.0,462.0,421.0,450.0,461.0,377.0,326.0,304.0,326.0,318.0,303.0,381.0,357.0,393.0
35.48681563300012,-83.492738570516238,37173,SWAIN,evictionfilings,county,nan,nan,10.0,38.0,3.0,1.0,40.0,25.0,20.0,29.0,35.0,35.0,19.0,25.0,36.0,33.0,41.0
35.202178377837534,-82.798299849246334,37175,TRANSYLVANIA,evictionfilings,county,43.0,59.0,120.0,96.0,63.0,67.0,56.0,83.0,108.0,130.0,105.0,155.0,153.0,158.0,196.0,173.0,207.0
35.815670223602105,-76.213027347218514,37177,TYRRELL,evictionfilings,county,7.0,14.0,34.0,20.0,10.0,13.0,12.0,10.0,12.0,7.0,14.0,14.0,6.0,7.0,17.0,23.0,11.0
34.988364235322457,-80.530722495841246,37179,UNION,evictionfilings,county,860.0,792.0,1844.0,1810.0,1563.0,1472.0,1434.0,1222.0,1411.0,1311.0,1136.0,1245.0,1138.0,1241.0,1312.0,1126.0,1197.0
36.364916371121062,-78.407928197913236,37181,VANCE,evictionfilings,county,1105.0,1465.0,2637.0,2016.0,1594.0,1732.0,1890.0,2050.0,1755.0,1557.0,1558.0,1420.0,1275.0,1283.0,1342.0,1454.0,1366.0
35.790243960790377,-78.650307712048559,37183,WAKE,evictionfilings,county,nan,nan,nan,nan,nan,7252.0,9142.0,15057.0,17128.0,18393.0,17436.0,17028.0,13005.0,15237.0,15232.0,14712.0,14845.0
36.396509641241721,-78.106716678915618,37185,WARREN,evictionfilings,county,nan,45.0,117.0,92.0,179.0,190.0,218.0,275.0,223.0,190.0,220.0,197.0,124.0,164.0,150.0,163.0,147.0
35.822582073117651,-76.577544223320928,37187,WASHINGTON,evictionfilings,county,107.0,153.0,294.0,233.0,222.0,160.0,138.0,118.0,165.0,110.0,157.0,152.0,106.0,120.0,133.0,119.0,133.0
36.231106402703197,-81.696424242145611,37189,WATAUGA,evictionfilings,county,nan,239.0,333.0,433.0,271.0,278.0,277.0,339.0,229.0,265.0,212.0,229.0,135.0,201.0,211.0,229.0,212.0
35.363960564333546,-78.003993586799183,37191,WAYNE,evictionfilings,county,1523.0,2322.0,3425.0,3160.0,2609.0,2232.0,2237.0,2284.0,2301.0,2195.0,2383.0,2162.0,2148.0,2009.0,2023.0,2092.0,2189.0
36.206288212620294,-81.16336046417986,37193,WILKES,evictionfilings,county,181.0,295.0,569.0,559.0,395.0,343.0,364.0,415.0,351.0,279.0,277.0,363.0,336.0,325.0,367.0,343.0,343.0
35.705145751001204,-77.918663265169982,37195,WILSON,evictionfilings,county,nan,nan,nan,5602.0,5053.0,4226.0,4315.0,4782.0,4252.0,3801.0,3739.0,3481.0,2781.0,2893.0,2813.0,2669.0,2740.0
36.160532844023706,-80.665243601565479,37197,YADKIN,evictionfilings,county,86.0,105.0,168.0,186.0,125.0,115.0,118.0,135.0,118.0,97.0,95.0,106.0,116.0,126.0,137.0,131.0,132.0
35.898948451357157,-82.307628242829921,37199,YANCEY,evictionfilings,county,8.0,22.0,24.0,33.0,13.0,9.0,6.0,35.0,31.0,13.0,19.0,19.0,13.0,35.0,35.0,30.0,29.0
36.043710240216591,-79.399423951477957,37001,ALAMANCE,evictionfilingrate,county,nan,7.41,13.68,14.07,15.25,14.96,12.97,13.37,13.6,12.44,12.11,12.03,12.06,11.76,11.99,11.36,11.08
35.921102138255272,-81.177031912548955,37003,ALEXANDER,evictionfilingrate,county,nan,nan,5.18,5.42,5.43,6.75,6.33,7.31,5.9,5.58,5.1,4.98,4.54,4.61,4.96,4.72,4.84
36.491266636096633,-81.127850995062033,37005,ALLEGHANY,evictionfilingrate,county,nan,0.5,1.87,0.87,0.09,0.83,2.16,2.74,1.9,1.78,1.66,1.88,0.97,1.27,1.49,2.09,3.2
34.973785174389654,-80.102709265074964,37007,ANSON,evictionfilingrate,county,nan,3.31,8.69,9.61,7.38,5.32,6.04,7.0,5.69,6.3,6.33,6.05,5.26,6.32,6.89,6.65,6.26
36.434424615079138,-81.500520276623391,37009,ASHE,evictionfilingrate,county,nan,1.08,2.18,3.46,2.42,1.35,2.17,2.19,2.02,3.07,2.15,2.23,3.19,2.77,2.83,2.04,2.35
36.076604895284156,-81.922601742964488,37011,AVERY,evictionfilingrate,county,nan,1.0,1.88,1.55,0.58,1.69,1.8,1.96,2.19,1.43,1.91,1.56,1.15,1.78,1.91,1.7,1.77
35.495993472072499,-76.863145408697179,37013,BEAUFORT,evictionfilingrate,county,nan,nan,10.87,10.89,6.22,4.49,5.45,7.19,4.92,5.07,4.25,3.49,4.78,4.09,4.71,6.47,5.35
36.069226673848902,-76.981684700687609,37015,BERTIE,evictionfilingrate,county,nan,nan,9.1,7.39,3.76,4.27,3.6,4.61,5.45,5.33,3.84,4.08,5.17,6.93,4.55,5.38,6.5
34.614586912521077,-78.563648292138183,37017,BLADEN,evictionfilingrate,county,nan,2.29,4.37,6.5,5.86,5.25,6.87,7.89,6.85,5.03,5.46,5.0,6.32,6.02,6.38,5.9,5.43
34.075199027798057,-78.245921798108682,37019,BRUNSWICK,evictionfilingrate,county,nan,4.17,9.81,9.07,nan,nan,nan,5.79,7.09,7.2,7.2,6.14,5.5,5.8,4.96,4.66,3.98
35.611209125424907,-82.530106509499007,37021,BUNCOMBE,evictionfilingrate,county,4.11,6.99,11.04,11.43,9.59,9.19,8.84,9.2,8.32,6.83,6.71,6.99,6.31,6.17,5.2,4.41,5.14
35.749610428064386,-81.704764284099468,37023,BURKE,evictionfilingrate,county,5.09,6.63,10.89,9.39,8.1,6.65,6.84,5.15,4.95,4.55,4.13,4.94,5.04,4.89,5.01,5.24,5.39
35.386794438573446,-80.551846463938276,37025,CABARRUS,evictionfilingrate,county,10.32,12.66,22.91,19.26,18.18,15.38,13.82,13.77,16.33,15.96,14.86,16.1,13.96,16.0,15.74,15.2,14.28
35.953045055751794,-81.546433024750016,37027,CALDWELL,evictionfilingrate,county,4.56,5.52,10.32,10.98,9.16,8.37,9.67,9.56,8.74,7.42,6.93,6.9,6.62,7.21,6.77,6.89,6.71
36.390074202466359,-76.209970935692212,37029,CAMDEN,evictionfilingrate,county,2.48,4.52,7.62,12.43,3.79,3.64,4.03,6.92,4.73,3.94,4.12,3.86,4.93,5.37,5.11,4.31,5.01
34.830761825553864,-76.674273919768069,37031,CARTERET,evictionfilingrate,county,2.94,5.17,8.53,6.97,3.79,4.38,4.44,4.26,3.91,3.26,4.96,4.22,4.71,3.64,4.2,3.38,3.5
36.393273383828429,-79.333522848633109,37033,CASWELL,evictionfilingrate,county,2.4,3.82,8.7,6.68,4.14,3.56,4.42,3.99,3.4,3.01,3.68,3.56,3.09,3.62,2.97,3.15,3.21
35.662111563876024,-81.215046597370872,37035,CATAWBA,evictionfilingrate,county,6.38,8.96,13.04,15.2,11.47,10.62,11.79,12.93,11.61,8.96,8.82,8.58,8.55,8.61,8.03,7.96,7.88
35.702571605850174,-79.25527468470581,37037,CHATHAM,evictionfilingrate,county,nan,nan,7.38,6.85,4.19,3.15,5.65,4.52,4.37,3.83,4.55,3.94,3.9,3.76,3.03,3.47,3.4
35.133856941008645,-84.063443362120907,37039,CHEROKEE,evictionfilingrate,county,2.33,3.8,6.41,6.59,4.87,5.55,5.6,6.46,5.56,3.88,4.55,3.54,4.34,4.63,4.53,5.11,5.29
36.150493984011192,-76.607913269945811,37041,CHOWAN,evictionfilingrate,county,3.81,4.49,10.98,9.19,5.79,5.57,4.03,4.29,3.78,3.71,2.84,2.69,2.96,3.28,3.99,2.78,3.38
35.057180283520019,-83.750174639851025,37043,CLAY,evictionfilingrate,county,0.84,2.83,3.71,4.06,2.66,4.04,2.65,3.79,2.42,3.16,3.95,3.66,2.52,2.56,3.53,3.46,4.38
35.334084364670431,-81.555537109917509,37045,CLEVELAND,evictionfilingrate,county,9.62,11.41,16.69,14.32,13.44,11.56,10.06,9.5,10.91,9.35,9.08,10.16,9.94,9.74,9.49,10.58,10.25
34.265723513751773,-78.654875587415418,37047,COLUMBUS,evictionfilingrate,county,1.63,1.68,5.52,4.97,3.52,3.83,4.04,4.01,4.4,4.2,4.67,5.06,3.47,3.16,4.4,4.96,4.3
35.126478706902589,-77.096581367335418,37049,CRAVEN,evictionfilingrate,county,nan,nan,3.14,4.17,4.38,3.89,3.35,4.75,4.72,4.47,4.66,5.27,5.96,5.73,6.47,7.56,6.31
35.048717955786614,-78.827375761218434,37051,CUMBERLAND,evictionfilingrate,county,10.99,14.71,22.96,21.53,23.7,26.95,20.56,17.87,17.65,17.06,17.6,17.26,15.44,15.32,15.12,15.12,14.04
36.402338641151928,-76.01668787829631,37053,CURRITUCK,evictionfilingrate,county,3.85,10.25,17.78,18.14,15.38,16.06,13.45,11.81,12.41,12.5,11.76,9.54,5.86,5.64,5.8,4.48,5.39
35.770881888092383,-75.800896084626942,37055,DARE,evictionfilingrate,county,3.81,5.05,9.92,10.44,8.97,6.85,8.71,12.32,9.78,8.3,7.02,4.76,4.84,5.2,4.88,3.91,3.72
35.793355445201989,-80.212748807862184,37057,DAVIDSON,evictionfilingrate,county,nan,nan,nan,nan,nan,26.59,12.73,nan,nan,nan,nan,nan,nan,nan,nan,nan,nan
35.929112144463232,-80.544465107350135,37059,DAVIE,evictionfilingrate,county,nan,nan,nan,nan,nan,3.85,4.97,8.05,6.6,6.97,6.37,7.06,6.34,6.17,5.33,4.51,4.36
34.936534753901618,-77.933025314662629,37061,DUPLIN,evictionfilingrate,county,2.49,4.65,6.98,6.61,4.86,3.43,3.8,4.31,3.89,3.68,3.67,4.23,3.44,3.81,3.76,3.38,3.4
36.036028767273692,-78.876591576242774,37063,DURHAM,evictionfilingrate,county,nan,nan,nan,nan,nan,37.14,50.26,25.01,25.32,29.41,28.78,26.56,23.64,22.27,20.45,18.37,17.92
35.912879349411078,-77.597062418011646,37065,EDGECOMBE,evictionfilingrate,county,34.21,58.53,83.73,82.41,nan,nan,nan,nan,nan,nan,nan,nan,nan,nan,nan,nan,nan
36.130618563667802,-80.25629796241347,37067,FORSYTH,evictionfilingrate,county,nan,nan,nan,nan,nan,26.09,26.39,19.56,18.04,17.51,24.42,20.48,20.17,18.91,17.96,15.94,15.99
36.082773223936506,-78.285695801473196,37069,FRANKLIN,evictionfilingrate,county,5.6,8.97,15.01,13.2,8.25,8.39,10.07,9.45,7.57,8.63,7.27,7.5,7.41,7.67,7.54,6.97,6.37
35.294351771555029,-81.180238991738136,37071,GASTON,evictionfilingrate,county,nan,nan,nan,7.88,10.24,27.93,24.07,15.66,16.35,14.66,15.8,16.61,15.08,16.32,18.13,16.16,14.92
36.445969397159473,-76.699168332836109,37073,GATES,evictionfilingrate,county,2.72,5.03,8.89,13.79,12.84,6.68,5.16,7.15,5.8,3.32,4.42,3.66,4.6,4.19,3.25,3.73,3.14
35.350172239735407,-83.8335820441485,37075,GRAHAM,evictionfilingrate,county,0.34,1.51,2.94,2.87,2.18,1.67,2.23,2.18,0.71,0.83,2.59,1.72,1.42,2.02,3.21,3.62,3.54
36.304070792616002,-78.652718937227291,37077,GRANVILLE,evictionfilingrate,county,7.06,11.96,18.19,15.68,11.25,11.56,12.49,16.81,13.22,11.49,10.47,9.48,9.18,9.9,9.07,9.46,10.07
35.484995679743463,-77.675762697502961,37079,GREENE,evictionfilingrate,county,nan,nan,nan,nan,nan,nan,nan,nan,nan,nan,nan,nan,nan,nan,nan,nan,nan
36.079473097391151,-79.788900349903528,37081,GUILFORD,evictionfilingrate,county,nan,nan,nan,nan,nan,30.05,19.78,9.59,23.92,20.93,22.27,21.45,18.75,21.61,20.99,19.45,18.7
36.257459724727966,-77.651772314341343,37083,HALIFAX,evictionfilingrate,county,nan,nan,nan,nan,9.87,7.37,9.08,10.15,8.56,7.47,7.69,9.01,7.8,7.63,7.09,7.26,6.72
35.368631103172987,-78.86940719782362,37085,HARNETT,evictionfilingrate,county,5.89,9.97,14.69,13.47,10.44,8.11,8.33,9.27,8.24,6.89,7.54,7.33,6.95,7.04,7.29,6.27,6.55
35.556055621756734,-82.982172921633406,37087,HAYWOOD,evictionfilingrate,county,2.89,4.25,7.95,6.54,6.31,5.4,6.24,6.23,6.09,5.64,5.32,4.86,5.13,5.33,5.78,6.02,5.41
35.336255926196557,-82.47996184302562,37089,HENDERSON,evictionfilingrate,county,3.66,5.37,9.09,8.01,7.37,7.94,6.64,7.32,6.91,6.23,5.12,5.27,4.86,4.67,4.47,4.37,5.01
36.358844700169641,-76.984027196079609,37091,HERTFORD,evictionfilingrate,county,2.57,4.33,9.29,9.52,8.4,5.79,9.16,8.81,8.06,6.93,6.62,8.28,6.75,6.03,5.95,6.02,6.69
35.017529909499729,-79.237293640942767,37093,HOKE,evictionfilingrate,county,6.16,8.81,12.67,15.16,nan,nan,nan,nan,nan,10.12,9.99,9.13,7.82,7.77,7.53,8.99,10.3
35.532499938725529,-76.24880875094334,37095,HYDE,evictionfilingrate,county,1.48,2.29,4.69,8.02,1.97,0.97,0.95,4.3,2.21,1.63,1.25,1.58,0.86,0.68,1.84,1.48,1.3
35.806694291358141,-80.873493575213189,37097,IREDELL,evictionfilingrate,county,6.23,9.9,17.77,16.47,nan,nan,nan,nan,nan,nan,nan,nan,nan,nan,nan,nan,nan
35.287587947318983,-83.140850060031696,37099,JACKSON,evictionfilingrate,county,1.52,2.76,3.89,3.48,nan,nan,nan,nan,2.56,2.37,2.7,3.48,2.97,3.01,3.2,3.07,3.39
35.517806628043196,-78.365706057484417,37101,JOHNSTON,evictionfilingrate,county,5.4,8.41,14.34,13.24,12.68,10.37,10.42,11.59,10.3,9.33,10.14,9.55,8.71,8.55,8.13,8.07,7.37
35.021711250594791,-77.355281509420649,37103,JONES,evictionfilingrate,county,1.47,4.64,7.77,7.46,7.05,4.94,7.24,4.92,6.21,4.21,4.79,4.5,5.31,6.45,5.35,6.1,4.71
35.475184935417964,-79.17148500731949,37105,LEE,evictionfilingrate,county,6.27,9.42,16.22,13.49,9.31,9.51,11.48,10.0,8.27,8.34,8.69,8.61,7.75,7.13,7.63,7.66,7.29
35.238747390926548,-77.641307984060717,37107,LENOIR,evictionfilingrate,county,nan,nan,nan,nan,7.72,14.16,13.73,13.3,20.79,14.95,15.67,15.76,13.86,14.0,13.92,13.99,15.59
35.485599257193094,-81.223530478430376,37109,LINCOLN,evictionfilingrate,county,5.28,7.29,10.58,10.23,7.95,8.46,8.34,7.47,7.63,6.37,5.58,5.99,6.01,6.49,6.31,6.11,5.82
35.150468193184281,-83.422179361669521,37113,MACON,evictionfilingrate,county,2.59,4.78,7.02,6.63,5.51,4.31,4.08,3.69,4.19,3.05,2.66,3.69,3.58,4.37,4.16,3.72,4.59
35.858035613507099,-82.705758025308057,37115,MADISON,evictionfilingrate,county,1.39,4.04,4.07,3.89,0.63,0.47,0.46,1.64,1.84,2.64,1.97,2.36,2.11,2.44,2.7,2.46,2.71
35.843136723574609,-77.109262281337692,37117,MARTIN,evictionfilingrate,county,7.44,10.66,19.33,17.33,15.87,8.95,10.3,10.36,10.68,8.83,8.94,8.82,7.56,7.44,6.86,6.81,6.67
35.681696482592933,-82.049309608893196,37111,MCDOWELL,evictionfilingrate,county,2.35,3.2,5.72,5.58,3.7,3.86,4.25,5.24,4.08,3.22,3.53,4.16,4.18,4.65,4.73,4.77,5.13
35.246461337598078,-80.832621117458686,37119,MECKLENBURG,evictionfilingrate,county,nan,nan,nan,nan,36.37,41.59,31.89,29.54,27.25,25.08,25.49,24.77,21.79,20.8,20.13,17.81,16.43
36.013203060584814,-82.163581024222182,37121,MITCHELL,evictionfilingrate,county,nan,0.08,0.91,0.3,0.51,1.49,1.25,1.64,1.34,1.25,0.84,1.65,1.81,1.35,1.76,2.75,2.94
35.332398785297165,-79.905483862328921,37123,MONTGOMERY,evictionfilingrate,county,2.35,4.56,7.7,6.56,5.02,4.56,4.97,5.8,4.81,3.45,3.6,3.87,4.5,3.78,3.84,5.07,4.29
35.31065515634446,-79.48137564176271,37125,MOORE,evictionfilingrate,county,2.93,4.42,8.47,8.77,4.75,5.47,5.13,6.11,5.05,4.42,5.53,5.59,3.99,3.52,3.43,3.79,3.96
35.96725132238933,-77.986445504529215,37127,NASH,evictionfilingrate,county,nan,37.62,71.21,62.92,nan,nan,nan,nan,nan,nan,nan,nan,nan,nan,nan,nan,nan
34.242514801053098,-77.882005833375828,37129,NEW HANOVER,evictionfilingrate,county,nan,nan,nan,nan,13.66,14.69,13.25,13.59,12.82,11.27,10.73,10.09,8.98,9.21,8.86,7.88,7.39
36.417732930235218,-77.39682693074208,37131,NORTHAMPTON,evictionfilingrate,county,3.65,4.68,7.71,8.36,7.76,5.63,5.99,5.65,3.12,4.15,3.59,4.11,3.29,4.07,4.34,5.29,4.72
34.737804948914651,-77.434087894625023,37133,ONSLOW,evictionfilingrate,county,nan,8.93,10.57,9.17,7.48,6.19,7.31,8.28,8.28,6.67,6.54,6.3,6.41,6.42,6.36,6.22,6.83
36.061118377819042,-79.12064796691503,37135,ORANGE,evictionfilingrate,county,2.26,4.45,8.67,7.39,6.75,7.63,7.0,8.51,7.02,6.41,6.21,5.53,5.45,5.26,4.81,4.13,4.21
35.140953656592764,-76.748649955669151,37137,PAMLICO,evictionfilingrate,county,2.28,4.66,6.4,4.24,3.35,2.51,4.62,5.63,4.25,4.51,3.56,3.8,3.13,2.33,3.52,2.9,1.94
36.297423539727809,-76.286715517944714,37139,PASQUOTANK,evictionfilingrate,county,nan,11.96,26.44,23.23,nan,nan,nan,nan,nan,nan,nan,nan,nan,nan,nan,nan,nan
34.526502760116735,-77.907490293673746,37141,PENDER,evictionfilingrate,county,3.11,4.54,8.71,8.2,7.01,5.89,5.58,5.56,5.95,5.1,4.59,4.45,3.51,4.48,5.48,5.27,5.11
36.207004484149941,-76.441870374971671,37143,PERQUIMANS,evictionfilingrate,county,4.42,5.71,7.77,5.88,6.57,4.41,3.71,4.8,5.67,4.0,4.12,4.31,4.08,3.37,3.84,4.43,4.86
36.390095343314023,-78.971804807167956,37145,PERSON,evictionfilingrate,county,nan,12.15,18.8,16.39,nan,nan,nan,nan,nan,nan,nan,nan,nan,nan,nan,nan,nan
35.593341520681754,-77.374689510819081,37147,PITT,evictionfilingrate,county,nan,nan,16.72,15.88,14.89,23.6,28.72,19.44,19.75,16.57,17.07,18.4,16.2,16.21,14.87,14.2,13.98
35.279291091334521,-82.169689234198358,37149,POLK,evictionfilingrate,county,0.95,2.59,4.08,4.4,2.06,2.83,2.91,2.35,1.72,2.84,2.73,2.58,2.14,2.65,2.22,1.97,2.05
35.710285103600661,-79.806029142803823,37151,RANDOLPH,evictionfilingrate,county,4.37,7.8,11.18,12.9,9.57,12.16,10.21,10.49,9.38,7.9,7.55,8.73,7.2,7.34,7.47,7.59,7.74
35.005875184629829,-79.747859036516672,37153,RICHMOND,evictionfilingrate,county,6.28,11.29,15.82,16.19,nan,nan,nan,nan,nan,nan,nan,nan,nan,nan,nan,nan,nan
34.6404344215808,-79.103818685313172,37155,ROBESON,evictionfilingrate,county,5.88,8.29,12.86,14.59,11.19,11.42,11.35,12.27,12.34,13.17,12.92,12.24,10.37,10.56,9.99,9.99,9.67
36.396012381672378,-79.774987532710256,37157,ROCKINGHAM,evictionfilingrate,county,6.29,9.72,14.27,15.27,13.73,14.94,9.28,7.58,6.07,6.65,5.72,7.24,6.2,6.44,5.94,4.83,4.44
35.639473628436463,-80.524771007427617,37159,ROWAN,evictionfilingrate,county,7.39,11.92,15.29,13.55,11.36,9.58,10.14,10.72,12.18,10.41,9.4,10.09,9.63,10.97,11.68,10.62,10.46
35.402594268040886,-81.919830945900699,37161,RUTHERFORD,evictionfilingrate,county,5.8,8.15,11.42,11.03,8.05,7.18,6.69,6.0,4.93,5.89,6.21,5.94,5.62,6.14,6.32,5.3,5.58
34.991538035956324,-78.371390288218336,37163,SAMPSON,evictionfilingrate,county,nan,11.48,14.44,13.66,8.8,8.18,7.14,8.61,7.25,6.84,7.5,6.76,5.93,6.84,5.91,5.69,5.33
34.840872273438116,-79.480452323272885,37165,SCOTLAND,evictionfilingrate,county,nan,20.98,27.96,24.27,13.31,12.78,13.79,17.69,18.08,14.95,13.37,11.96,10.1,10.56,12.13,9.36,7.74
35.311940355315571,-80.250973958660637,37167,STANLY,evictionfilingrate,county,nan,nan,4.7,6.84,8.91,9.33,7.54,6.66,7.0,6.27,5.18,5.31,4.9,5.02,5.02,4.29,4.54
36.401905104348955,-80.23951623019164,37169,STOKES,evictionfilingrate,county,3.11,5.4,7.18,6.97,5.06,5.07,5.13,5.06,3.86,3.37,3.14,3.69,3.62,3.41,3.62,3.24,3.91
36.414828293055457,-80.688046143775622,37171,SURRY,evictionfilingrate,county,3.7,5.58,10.43,10.17,6.33,5.65,5.93,5.96,4.79,4.06,3.72,3.93,3.78,3.55,4.4,4.07,4.42
35.48681563300012,-83.492738570516238,37173,SWAIN,evictionfilingrate,county,nan,nan,0.8,2.98,0.23,0.08,2.94,1.8,1.41,2.01,2.38,2.31,1.22,1.56,2.18,1.95,2.36
35.202178377837534,-82.798299849246334,37175,TRANSYLVANIA,evictionfilingrate,county,1.69,2.24,4.39,3.39,2.15,2.21,1.79,2.57,3.25,3.8,2.98,4.28,4.12,4.15,5.02,4.32,5.05
35.815670223602105,-76.213027347218514,37177,TYRRELL,evictionfilingrate,county,1.81,3.58,8.57,4.97,2.45,3.15,2.87,2.36,2.8,1.61,3.18,3.14,1.33,1.54,3.68,4.93,2.33
34.988364235322457,-80.530722495841246,37179,UNION,evictionfilingrate,county,10.17,8.92,19.82,18.6,15.39,13.91,13.02,10.69,11.9,10.67,8.94,9.43,8.31,8.75,8.95,7.43,7.65
36.364916371121062,-78.407928197913236,37181,VANCE,evictionfilingrate,county,20.22,26.25,46.28,34.67,26.88,28.64,30.66,32.64,27.43,23.9,23.5,21.17,18.79,18.69,19.33,20.7,19.24
35.790243960790377,-78.650307712048559,37183,WAKE,evictionfilingrate,county,nan,nan,nan,nan,nan,7.14,8.68,13.8,15.17,15.76,14.47,13.64,10.06,11.41,11.04,10.34,10.12
36.396509641241721,-78.106716678915618,37185,WARREN,evictionfilingrate,county,nan,2.51,6.33,4.84,9.15,9.45,10.56,12.98,10.27,8.54,9.65,8.47,5.23,6.78,6.08,6.49,5.74
35.822582073117651,-76.577544223320928,37187,WASHINGTON,evictionfilingrate,county,7.55,10.61,20.02,15.6,14.61,10.36,8.79,7.39,10.17,6.68,9.38,9.0,6.22,6.97,7.65,6.79,7.51
36.231106402703197,-81.696424242145611,37189,WATAUGA,evictionfilingrate,county,nan,3.73,4.99,6.24,3.76,3.72,3.58,4.23,2.76,3.1,2.4,2.54,1.46,2.13,2.19,2.33,2.12
35.363960564333546,-78.003993586799183,37191,WAYNE,evictionfilingrate,county,10.32,15.4,22.23,20.09,16.25,13.63,13.39,13.41,13.26,12.42,13.24,11.81,11.54,10.62,10.52,10.71,11.03
36.206288212620294,-81.16336046417986,37193,WILKES,evictionfilingrate,county,3.08,4.9,9.25,8.89,6.14,5.22,5.43,6.06,5.03,3.92,3.82,4.91,4.47,4.24,4.71,4.33,4.26
35.705145751001204,-77.918663265169982,37195,WILSON,evictionfilingrate,county,nan,nan,nan,48.26,42.92,35.4,35.65,38.98,34.19,30.17,29.29,26.95,21.28,21.89,21.04,19.74,20.04
36.160532844023706,-80.665243601565479,37197,YADKIN,evictionfilingrate,county,3.0,3.57,5.55,5.98,3.91,3.51,3.51,3.92,3.35,2.69,2.57,2.82,3.04,3.25,3.48,3.28,3.25
35.898948451357157,-82.307628242829921,37199,YANCEY,evictionfilingrate,county,0.54,1.46,1.56,2.09,0.81,0.55,0.36,2.05,1.78,0.73,1.05,1.03,0.69,1.83,1.8,1.52,1.44
